{
"type": "FeatureCollection",
"name": "quartiers_da_a",
"crs": { "type": "name", "properties": { "name": "urn:ogc:def:crs:OGC:1.3:CRS84" } },
"features": [
{ "type": "Feature", "properties": { "UserID": 0, "osm_id": 244527830, "name": "Deux Plateaux", "type": "suburb", "population": null }, "geometry": { "type": "Point", "coordinates": [ -3.991954, 5.3696652 ] } },
{ "type": "Feature", "properties": { "UserID": 0, "osm_id": 319225722, "name": "Petit Bassam", "type": "suburb", "population": null }, "geometry": { "type": "Point", "coordinates": [ -3.9676694, 5.2578481 ] } },
{ "type": "Feature", "properties": { "UserID": 0, "osm_id": 538899295, "name": "Quartier France", "type": "suburb", "population": null }, "geometry": { "type": "Point", "coordinates": [ -3.7367979, 5.1964919 ] } },
{ "type": "Feature", "properties": { "UserID": 0, "osm_id": 768587291, "name": "Azito Village", "type": "neighbourhood", "population": null }, "geometry": { "type": "Point", "coordinates": [ -4.0816094, 5.30152 ] } },
{ "type": "Feature", "properties": { "UserID": 0, "osm_id": 846760830, "name": "Domolon", "type": "neighbourhood", "population": null }, "geometry": { "type": "Point", "coordinates": [ -3.7429384, 5.407663 ] } },
{ "type": "Feature", "properties": { "UserID": 0, "osm_id": 846762895, "name": "Dabré", "type": "neighbourhood", "population": null }, "geometry": { "type": "Point", "coordinates": [ -3.7441866, 5.3973585 ] } },
{ "type": "Feature", "properties": { "UserID": 0, "osm_id": 1230532098, "name": "Biétri", "type": "suburb", "population": null }, "geometry": { "type": "Point", "coordinates": [ -3.9749933, 5.2776786 ] } },
{ "type": "Feature", "properties": { "UserID": 0, "osm_id": 1230532102, "name": "Zone 4c", "type": "neighbourhood", "population": null }, "geometry": { "type": "Point", "coordinates": [ -3.9759564, 5.2872943 ] } },
{ "type": "Feature", "properties": { "UserID": 0, "osm_id": 1237119281, "name": "Samake", "type": "neighbourhood", "population": null }, "geometry": { "type": "Point", "coordinates": [ -4.0067228, 5.4163814 ] } },
{ "type": "Feature", "properties": { "UserID": 0, "osm_id": 1237119294, "name": "Abobo Baoulé", "type": "neighbourhood", "population": null }, "geometry": { "type": "Point", "coordinates": [ -3.9960208, 5.4342942 ] } },
{ "type": "Feature", "properties": { "UserID": 0, "osm_id": 1237122669, "name": "Agbekoi", "type": "neighbourhood", "population": null }, "geometry": { "type": "Point", "coordinates": [ -4.0046039, 5.4371566 ] } },
{ "type": "Feature", "properties": { "UserID": 0, "osm_id": 1237134455, "name": "Bonoumin", "type": "suburb", "population": null }, "geometry": { "type": "Point", "coordinates": [ -3.9725785, 5.3647141 ] } },
{ "type": "Feature", "properties": { "UserID": 0, "osm_id": 1237134459, "name": "Les Palmeraies", "type": "suburb", "population": null }, "geometry": { "type": "Point", "coordinates": [ -3.9561219, 5.3698133 ] } },
{ "type": "Feature", "properties": { "UserID": 0, "osm_id": 1237134490, "name": "Angré", "type": "neighbourhood", "population": null }, "geometry": { "type": "Point", "coordinates": [ -3.9836296, 5.4054332 ] } },
{ "type": "Feature", "properties": { "UserID": 0, "osm_id": 1237138561, "name": "M'pouto", "type": "suburb", "population": null }, "geometry": { "type": "Point", "coordinates": [ -3.956108, 5.3269653 ] } },
{ "type": "Feature", "properties": { "UserID": 0, "osm_id": 1237138562, "name": "M’Badon", "type": "suburb", "population": null }, "geometry": { "type": "Point", "coordinates": [ -3.9347315, 5.3276745 ] } },
{ "type": "Feature", "properties": { "UserID": 0, "osm_id": 1237138563, "name": "Akouédo", "type": "suburb", "population": null }, "geometry": { "type": "Point", "coordinates": [ -3.9407029, 5.3522615 ] } },
{ "type": "Feature", "properties": { "UserID": 0, "osm_id": 1237138566, "name": "Riviéra 3", "type": "suburb", "population": null }, "geometry": { "type": "Point", "coordinates": [ -3.9583663, 5.3534064 ] } },
{ "type": "Feature", "properties": { "UserID": 0, "osm_id": 1237138567, "name": "Riviéra 2", "type": "suburb", "population": null }, "geometry": { "type": "Point", "coordinates": [ -3.9747622, 5.3464602 ] } },
{ "type": "Feature", "properties": { "UserID": 0, "osm_id": 1237138568, "name": "Mermoz", "type": "neighbourhood", "population": null }, "geometry": { "type": "Point", "coordinates": [ -4.0003672, 5.3407124 ] } },
{ "type": "Feature", "properties": { "UserID": 0, "osm_id": 1237138569, "name": "Riviéra 1", "type": "suburb", "population": null }, "geometry": { "type": "Point", "coordinates": [ -3.978405, 5.3329732 ] } },
{ "type": "Feature", "properties": { "UserID": 0, "osm_id": 1237138570, "name": "Riviéra 4", "type": "suburb", "population": null }, "geometry": { "type": "Point", "coordinates": [ -3.955456, 5.3390178 ] } },
{ "type": "Feature", "properties": { "UserID": 0, "osm_id": 1237141988, "name": "Ambassade", "type": "suburb", "population": null }, "geometry": { "type": "Point", "coordinates": [ -4.0028941, 5.3295269 ] } },
{ "type": "Feature", "properties": { "UserID": 0, "osm_id": 1237141989, "name": "Danga", "type": "neighbourhood", "population": null }, "geometry": { "type": "Point", "coordinates": [ -4.006063, 5.3388019 ] } },
{ "type": "Feature", "properties": { "UserID": 0, "osm_id": 1237141990, "name": "Danga Nord", "type": "neighbourhood", "population": null }, "geometry": { "type": "Point", "coordinates": [ -4.0055051, 5.344314 ] } },
{ "type": "Feature", "properties": { "UserID": 0, "osm_id": 1237141991, "name": "Vieux Cocody", "type": "suburb", "population": null }, "geometry": { "type": "Point", "coordinates": [ -4.0030242, 5.3393675 ] } },
{ "type": "Feature", "properties": { "UserID": 0, "osm_id": 1237143244, "name": "Quartier Espoir", "type": "neighbourhood", "population": null }, "geometry": { "type": "Point", "coordinates": [ -4.0383947, 5.3503604 ] } },
{ "type": "Feature", "properties": { "UserID": 0, "osm_id": 1335615325, "name": "Biafra", "type": "neighbourhood", "population": null }, "geometry": { "type": "Point", "coordinates": [ -4.0048374, 5.3134385 ] } },
{ "type": "Feature", "properties": { "UserID": 0, "osm_id": 1987786257, "name": "Riviera-Eden", "type": "neighbourhood", "population": null }, "geometry": { "type": "Point", "coordinates": [ -3.9400506, 5.3264918 ] } },
{ "type": "Feature", "properties": { "UserID": 0, "osm_id": 2038341587, "name": "Anoumabo", "type": "neighbourhood", "population": null }, "geometry": { "type": "Point", "coordinates": [ -3.9682162, 5.3096608 ] } },
{ "type": "Feature", "properties": { "UserID": 0, "osm_id": -1943927970, "name": "Cité des Arts", "type": "neighbourhood", "population": null }, "geometry": { "type": "Point", "coordinates": [ -3.9997675, 5.3465861 ] } },
{ "type": "Feature", "properties": { "UserID": 0, "osm_id": -1881982085, "name": "Macaci", "type": "neighbourhood", "population": null }, "geometry": { "type": "Point", "coordinates": [ -4.0255743, 5.3769124 ] } },
{ "type": "Feature", "properties": { "UserID": 0, "osm_id": -1844041542, "name": "Williamsville", "type": "suburb", "population": null }, "geometry": { "type": "Point", "coordinates": [ -4.023831, 5.368657 ] } },
{ "type": "Feature", "properties": { "UserID": 0, "osm_id": -1834426501, "name": "Siporex", "type": "neighbourhood", "population": null }, "geometry": { "type": "Point", "coordinates": [ -4.0745688, 5.3541741 ] } },
{ "type": "Feature", "properties": { "UserID": 0, "osm_id": -1829475220, "name": "Selmer", "type": "neighbourhood", "population": null }, "geometry": { "type": "Point", "coordinates": [ -4.0700192, 5.3403698 ] } },
{ "type": "Feature", "properties": { "UserID": 0, "osm_id": -1829475219, "name": "Sicogi", "type": "neighbourhood", "population": null }, "geometry": { "type": "Point", "coordinates": [ -4.0774311, 5.3440938 ] } },
{ "type": "Feature", "properties": { "UserID": 0, "osm_id": -1826649815, "name": "Sos Abobo", "type": "neighbourhood", "population": null }, "geometry": { "type": "Point", "coordinates": [ -4.0181235, 5.4305714 ] } },
{ "type": "Feature", "properties": { "UserID": 0, "osm_id": -1787364143, "name": "Niangon Lokoa", "type": "neighbourhood", "population": null }, "geometry": { "type": "Point", "coordinates": [ -4.1038271, 5.3112001 ] } },
{ "type": "Feature", "properties": { "UserID": 0, "osm_id": -1787364142, "name": "Niangon nord", "type": "neighbourhood", "population": null }, "geometry": { "type": "Point", "coordinates": [ -4.1034756, 5.3290971 ] } },
{ "type": "Feature", "properties": { "UserID": 0, "osm_id": -1787364141, "name": "Niangon sud", "type": "neighbourhood", "population": null }, "geometry": { "type": "Point", "coordinates": [ -4.0937208, 5.3164276 ] } },
{ "type": "Feature", "properties": { "UserID": 0, "osm_id": -1787364086, "name": "Kouté", "type": "suburb", "population": null }, "geometry": { "type": "Point", "coordinates": [ -4.0733124, 5.3251426 ] } },
{ "type": "Feature", "properties": { "UserID": 0, "osm_id": -1781202472, "name": "Académie", "type": "neighbourhood", "population": null }, "geometry": { "type": "Point", "coordinates": [ -4.1127465, 5.3165839 ] } },
{ "type": "Feature", "properties": { "UserID": 0, "osm_id": -1781202465, "name": "Banco nord", "type": "suburb", "population": null }, "geometry": { "type": "Point", "coordinates": [ -4.0541142, 5.3437413 ] } },
{ "type": "Feature", "properties": { "UserID": 0, "osm_id": -1781202458, "name": "Attié", "type": "suburb", "population": null }, "geometry": { "type": "Point", "coordinates": [ -4.0796978, 5.3475568 ] } },
{ "type": "Feature", "properties": { "UserID": 0, "osm_id": -1781202443, "name": "Banco Sud", "type": "suburb", "population": null }, "geometry": { "type": "Point", "coordinates": [ -4.049216, 5.3295122 ] } },
{ "type": "Feature", "properties": { "UserID": 0, "osm_id": -1741789327, "name": "Cité policière de Treichville", "type": "neighbourhood", "population": null }, "geometry": { "type": "Point", "coordinates": [ -4.0164306, 5.307495 ] } },
{ "type": "Feature", "properties": { "UserID": 0, "osm_id": -1712576450, "name": "Gesco", "type": "neighbourhood", "population": null }, "geometry": { "type": "Point", "coordinates": [ -4.1039846, 5.3653836 ] } },
{ "type": "Feature", "properties": { "UserID": 0, "osm_id": -1712576448, "name": "Hôpital", "type": "suburb", "population": null }, "geometry": { "type": "Point", "coordinates": [ -4.099225, 5.3626983 ] } },
{ "type": "Feature", "properties": { "UserID": 0, "osm_id": -1712576447, "name": "Mamie Adjoua", "type": "neighbourhood", "population": null }, "geometry": { "type": "Point", "coordinates": [ -4.0946424, 5.3627879 ] } },
{ "type": "Feature", "properties": { "UserID": 0, "osm_id": -1712576446, "name": "Zone Industrielle", "type": "suburb", "population": null }, "geometry": { "type": "Point", "coordinates": [ -4.0845378, 5.3744062 ] } },
{ "type": "Feature", "properties": { "UserID": 0, "osm_id": -1698021705, "name": "Ananeraie", "type": "neighbourhood", "population": null }, "geometry": { "type": "Point", "coordinates": [ -4.1014673, 5.3520744 ] } },
{ "type": "Feature", "properties": { "UserID": 0, "osm_id": -1698021704, "name": "Cité Verte", "type": "neighbourhood", "population": null }, "geometry": { "type": "Point", "coordinates": [ -4.1116452, 5.3345233 ] } },
{ "type": "Feature", "properties": { "UserID": 0, "osm_id": -1698021703, "name": "Lièvre rouge", "type": "neighbourhood", "population": null }, "geometry": { "type": "Point", "coordinates": [ -4.1079316, 5.3362671 ] } },
{ "type": "Feature", "properties": { "UserID": 0, "osm_id": -1698021701, "name": "Niangon Sud - Sicogi", "type": "neighbourhood", "population": null }, "geometry": { "type": "Point", "coordinates": [ -4.091802, 5.3192476 ] } },
{ "type": "Feature", "properties": { "UserID": 0, "osm_id": -1698021700, "name": "Port-Bouët II", "type": "neighbourhood", "population": null }, "geometry": { "type": "Point", "coordinates": [ -4.0956084, 5.352378 ] } },
{ "type": "Feature", "properties": { "UserID": 0, "osm_id": -1698021699, "name": "Quartier Maroc", "type": "neighbourhood", "population": null }, "geometry": { "type": "Point", "coordinates": [ -4.0991974, 5.3394198 ] } },
{ "type": "Feature", "properties": { "UserID": 0, "osm_id": -1697999567, "name": "Camp militaire", "type": "neighbourhood", "population": null }, "geometry": { "type": "Point", "coordinates": [ -4.0646541, 5.321574 ] } },
{ "type": "Feature", "properties": { "UserID": 0, "osm_id": -1697999557, "name": "Deuxième tranche", "type": "neighbourhood", "population": null }, "geometry": { "type": "Point", "coordinates": [ -4.0982341, 5.3358498 ] } },
{ "type": "Feature", "properties": { "UserID": 0, "osm_id": -1697999552, "name": "Kouté village", "type": "neighbourhood", "population": null }, "geometry": { "type": "Point", "coordinates": [ -4.0748924, 5.3215215 ] } },
{ "type": "Feature", "properties": { "UserID": 0, "osm_id": -1697999535, "name": "Sideci", "type": "neighbourhood", "population": null }, "geometry": { "type": "Point", "coordinates": [ -4.0819429, 5.326251 ] } },
{ "type": "Feature", "properties": { "UserID": 0, "osm_id": -1697993911, "name": "Nouveau quartier", "type": "neighbourhood", "population": null }, "geometry": { "type": "Point", "coordinates": [ -4.0592382, 5.3395933 ] } },
{ "type": "Feature", "properties": { "UserID": 0, "osm_id": -1697993900, "name": "Yopougon-Santé", "type": "neighbourhood", "population": null }, "geometry": { "type": "Point", "coordinates": [ -4.046328, 5.3085503 ] } },
{ "type": "Feature", "properties": { "UserID": 0, "osm_id": -1686582986, "name": "Cité Hibiscus", "type": "neighbourhood", "population": null }, "geometry": { "type": "Point", "coordinates": [ -3.9818359, 5.2990032 ] } },
{ "type": "Feature", "properties": { "UserID": 0, "osm_id": -1610779476, "name": "Les Pays-Bas", "type": "neighbourhood", "population": null }, "geometry": { "type": "Point", "coordinates": [ -4.1089946, 5.3691524 ] } },
{ "type": "Feature", "properties": { "UserID": 0, "osm_id": -1602626473, "name": "Agban-Attié", "type": "neighbourhood", "population": null }, "geometry": { "type": "Point", "coordinates": [ -4.0500976, 5.3555631 ] } },
{ "type": "Feature", "properties": { "UserID": 0, "osm_id": -1602626472, "name": "Agban-village", "type": "neighbourhood", "population": null }, "geometry": { "type": "Point", "coordinates": [ -4.0333358, 5.3602318 ] } },
{ "type": "Feature", "properties": { "UserID": 0, "osm_id": -1602626471, "name": "Andokoi", "type": "suburb", "population": null }, "geometry": { "type": "Point", "coordinates": [ -4.0682412, 5.366067 ] } },
{ "type": "Feature", "properties": { "UserID": 0, "osm_id": -1566430273, "name": "Vridi", "type": "suburb", "population": null }, "geometry": { "type": "Point", "coordinates": [ -4.0023228, 5.2648573 ] } },
{ "type": "Feature", "properties": { "UserID": 0, "osm_id": -1530189006, "name": "Keneya", "type": "neighbourhood", "population": null }, "geometry": { "type": "Point", "coordinates": [ -4.075798, 5.3481832 ] } },
{ "type": "Feature", "properties": { "UserID": 0, "osm_id": -1456736930, "name": "Zone 3", "type": "suburb", "population": null }, "geometry": { "type": "Point", "coordinates": [ -3.9959665, 5.295706 ] } },
{ "type": "Feature", "properties": { "UserID": 0, "osm_id": -1454524938, "name": "GFCI", "type": "neighbourhood", "population": null }, "geometry": { "type": "Point", "coordinates": [ -4.0619462, 5.3498761 ] } },
{ "type": "Feature", "properties": { "UserID": 0, "osm_id": -1454524935, "name": "Quartier Résidentiel", "type": "neighbourhood", "population": null }, "geometry": { "type": "Point", "coordinates": [ -4.0520599, 5.3451983 ] } },
{ "type": "Feature", "properties": { "UserID": 0, "osm_id": -1454524934, "name": "Sogefiha Solic 1 & 2", "type": "neighbourhood", "population": null }, "geometry": { "type": "Point", "coordinates": [ -4.0824155, 5.3383995 ] } },
{ "type": "Feature", "properties": { "UserID": 0, "osm_id": -1454524933, "name": "Sopim", "type": "neighbourhood", "population": null }, "geometry": { "type": "Point", "coordinates": [ -4.0609527, 5.3438399 ] } },
{ "type": "Feature", "properties": { "UserID": 0, "osm_id": -1454524932, "name": "Toits-Rouges", "type": "quarter", "population": null }, "geometry": { "type": "Point", "coordinates": [ -4.0549974, 5.3313248 ] } },
{ "type": "Feature", "properties": { "UserID": 0, "osm_id": -1454524931, "name": "Wassakara", "type": "neighbourhood", "population": null }, "geometry": { "type": "Point", "coordinates": [ -4.0667528, 5.3481134 ] } },
{ "type": "Feature", "properties": { "UserID": 0, "osm_id": -1454241257, "name": "Béago", "type": "neighbourhood", "population": null }, "geometry": { "type": "Point", "coordinates": [ -4.070067, 5.3075545 ] } },
{ "type": "Feature", "properties": { "UserID": 0, "osm_id": -1454241256, "name": "Niangon Adjamé", "type": "neighbourhood", "population": null }, "geometry": { "type": "Point", "coordinates": [ -4.1186215, 5.3356392 ] } },
{ "type": "Feature", "properties": { "UserID": 0, "osm_id": -1446405966, "name": "Cité Nawa", "type": "neighbourhood", "population": null }, "geometry": { "type": "Point", "coordinates": [ -4.10433, 5.3542289 ] } },
{ "type": "Feature", "properties": { "UserID": 0, "osm_id": -1400501446, "name": "Adjouffou", "type": "neighbourhood", "population": null }, "geometry": { "type": "Point", "coordinates": [ -3.9105162, 5.2492498 ] } },
{ "type": "Feature", "properties": { "UserID": 0, "osm_id": -1397558322, "name": "Cité CIE", "type": "neighbourhood", "population": null }, "geometry": { "type": "Point", "coordinates": [ -3.8990007, 5.3587904 ] } },
{ "type": "Feature", "properties": { "UserID": 0, "osm_id": -1392063842, "name": "Quartier Chicane", "type": "neighbourhood", "population": null }, "geometry": { "type": "Point", "coordinates": [ -4.0185007, 5.358912 ] } },
{ "type": "Feature", "properties": { "UserID": 0, "osm_id": -1389932476, "name": "Anyama Sossokoua", "type": "neighbourhood", "population": null }, "geometry": { "type": "Point", "coordinates": [ -4.051831, 5.494622 ] } },
{ "type": "Feature", "properties": { "UserID": 0, "osm_id": -1368828775, "name": "Bonikro", "type": "neighbourhood", "population": null }, "geometry": { "type": "Point", "coordinates": [ -4.105358, 5.350861 ] } },
{ "type": "Feature", "properties": { "UserID": 0, "osm_id": -1317040096, "name": "Moossou", "type": "neighbourhood", "population": null }, "geometry": { "type": "Point", "coordinates": [ -3.722004, 5.226186 ] } },
{ "type": "Feature", "properties": { "UserID": 0, "osm_id": -1311721679, "name": "Aboua", "type": "neighbourhood", "population": null }, "geometry": { "type": "Point", "coordinates": [ -4.078149, 5.447297 ] } },
{ "type": "Feature", "properties": { "UserID": 0, "osm_id": -1311721672, "name": "Akouédo Attié", "type": "neighbourhood", "population": null }, "geometry": { "type": "Point", "coordinates": [ -3.929099, 5.357143 ] } },
{ "type": "Feature", "properties": { "UserID": 0, "osm_id": -1311721671, "name": "Akoué Santé", "type": "neighbourhood", "population": null }, "geometry": { "type": "Point", "coordinates": [ -3.8988391, 5.3667432 ] } },
{ "type": "Feature", "properties": { "UserID": 0, "osm_id": -1311721669, "name": "Aman", "type": "neighbourhood", "population": null }, "geometry": { "type": "Point", "coordinates": [ -4.07883, 5.444437 ] } },
{ "type": "Feature", "properties": { "UserID": 0, "osm_id": -1311721668, "name": "Anyama Adjamé", "type": "neighbourhood", "population": null }, "geometry": { "type": "Point", "coordinates": [ -4.044691, 5.480409 ] } },
{ "type": "Feature", "properties": { "UserID": 0, "osm_id": -1311721665, "name": "Atsin", "type": "neighbourhood", "population": null }, "geometry": { "type": "Point", "coordinates": [ -4.081818, 5.449561 ] } },
{ "type": "Feature", "properties": { "UserID": 0, "osm_id": -1311721160, "name": "Boussake", "type": "neighbourhood", "population": null }, "geometry": { "type": "Point", "coordinates": [ -4.040568, 5.454837 ] } },
{ "type": "Feature", "properties": { "UserID": 0, "osm_id": -1311721157, "name": "Eloka-Té", "type": "neighbourhood", "population": null }, "geometry": { "type": "Point", "coordinates": [ -3.74875, 5.293864 ] } },
{ "type": "Feature", "properties": { "UserID": 0, "osm_id": -1311721156, "name": "Gbagba", "type": "neighbourhood", "population": null }, "geometry": { "type": "Point", "coordinates": [ -3.8885235, 5.3501841 ] } },
{ "type": "Feature", "properties": { "UserID": 0, "osm_id": -1311721152, "name": "Kouadjo Kouakou", "type": "neighbourhood", "population": null }, "geometry": { "type": "Point", "coordinates": [ -4.070928, 5.450021 ] } },
{ "type": "Feature", "properties": { "UserID": 0, "osm_id": -1311721151, "name": "Kouaokrou", "type": "neighbourhood", "population": null }, "geometry": { "type": "Point", "coordinates": [ -4.053694, 5.476836 ] } },
{ "type": "Feature", "properties": { "UserID": 0, "osm_id": -1311721150, "name": "Kouassi Kakou", "type": "neighbourhood", "population": null }, "geometry": { "type": "Point", "coordinates": [ -3.8798773, 5.365615 ] } },
{ "type": "Feature", "properties": { "UserID": 0, "osm_id": -1311721143, "name": "Moni", "type": "neighbourhood", "population": null }, "geometry": { "type": "Point", "coordinates": [ -4.051604, 5.464131 ] } },
{ "type": "Feature", "properties": { "UserID": 0, "osm_id": -1311721137, "name": "Sapa", "type": "neighbourhood", "population": null }, "geometry": { "type": "Point", "coordinates": [ -4.058867, 5.451396 ] } },
{ "type": "Feature", "properties": { "UserID": 0, "osm_id": -1311721133, "name": "Sofaica", "type": "neighbourhood", "population": null }, "geometry": { "type": "Point", "coordinates": [ -4.041908, 5.447555 ] } },
{ "type": "Feature", "properties": { "UserID": 0, "osm_id": -1311721132, "name": "Tamini", "type": "neighbourhood", "population": null }, "geometry": { "type": "Point", "coordinates": [ -4.076402, 5.451442 ] } },
{ "type": "Feature", "properties": { "UserID": 0, "osm_id": -1311721129, "name": "Vera", "type": "neighbourhood", "population": null }, "geometry": { "type": "Point", "coordinates": [ -3.861688, 5.237441 ] } },
{ "type": "Feature", "properties": { "UserID": 0, "osm_id": -1311721127, "name": "Yapi", "type": "neighbourhood", "population": null }, "geometry": { "type": "Point", "coordinates": [ -4.074499, 5.450524 ] } },
{ "type": "Feature", "properties": { "UserID": 0, "osm_id": -1311689659, "name": "Songon-M’brathé", "type": "neighbourhood", "population": null }, "geometry": { "type": "Point", "coordinates": [ -4.258217, 5.31465 ] } },
{ "type": "Feature", "properties": { "UserID": 0, "osm_id": -1311622053, "name": "Abobo Té", "type": "neighbourhood", "population": null }, "geometry": { "type": "Point", "coordinates": [ -3.996821, 5.405693 ] } },
{ "type": "Feature", "properties": { "UserID": 0, "osm_id": -1311622052, "name": "Adjouffou", "type": "neighbourhood", "population": null }, "geometry": { "type": "Point", "coordinates": [ -3.9209133, 5.243664 ] } },
{ "type": "Feature", "properties": { "UserID": 0, "osm_id": -1311622051, "name": "Adjifou Un", "type": "neighbourhood", "population": null }, "geometry": { "type": "Point", "coordinates": [ -3.9284049, 5.2450045 ] } },
{ "type": "Feature", "properties": { "UserID": 0, "osm_id": -1311622048, "name": "Djéné", "type": "neighbourhood", "population": null }, "geometry": { "type": "Point", "coordinates": [ -4.045665, 5.346805 ] } },
{ "type": "Feature", "properties": { "UserID": 0, "osm_id": -1311622047, "name": "Attécoubé Nimatoulaye", "type": "neighbourhood", "population": null }, "geometry": { "type": "Point", "coordinates": [ -4.04728, 5.349786 ] } },
{ "type": "Feature", "properties": { "UserID": 0, "osm_id": -1311622044, "name": "Brahima Touré", "type": "neighbourhood", "population": null }, "geometry": { "type": "Point", "coordinates": [ -3.976029, 5.385107 ] } },
{ "type": "Feature", "properties": { "UserID": 0, "osm_id": -1311622043, "name": "Broukoua", "type": "neighbourhood", "population": null }, "geometry": { "type": "Point", "coordinates": [ -4.06585, 5.452693 ] } },
{ "type": "Feature", "properties": { "UserID": 0, "osm_id": -1311622041, "name": "Ekra", "type": "neighbourhood", "population": null }, "geometry": { "type": "Point", "coordinates": [ -3.978332, 5.388239 ] } },
{ "type": "Feature", "properties": { "UserID": 0, "osm_id": -1311622040, "name": "Gobelet", "type": "neighbourhood", "population": null }, "geometry": { "type": "Point", "coordinates": [ -3.9875682, 5.3731054 ] } },
{ "type": "Feature", "properties": { "UserID": 0, "osm_id": -1311622038, "name": "Jean folie", "type": "neighbourhood", "population": null }, "geometry": { "type": "Point", "coordinates": [ -3.913886, 5.2426664 ] } },
{ "type": "Feature", "properties": { "UserID": 0, "osm_id": -1311622036, "name": "Cité Allabra Reconciliation", "type": "neighbourhood", "population": null }, "geometry": { "type": "Point", "coordinates": [ -3.9674311, 5.3547566 ] } },
{ "type": "Feature", "properties": { "UserID": 0, "osm_id": -1311622034, "name": "Loukoukro Ekaré", "type": "neighbourhood", "population": null }, "geometry": { "type": "Point", "coordinates": [ -4.045728, 5.343421 ] } },
{ "type": "Feature", "properties": { "UserID": 0, "osm_id": -1311622033, "name": "L’habitat", "type": "neighbourhood", "population": null }, "geometry": { "type": "Point", "coordinates": [ -4.009514, 5.432804 ] } },
{ "type": "Feature", "properties": { "UserID": 0, "osm_id": -1311622030, "name": "Pedéko", "type": "neighbourhood", "population": null }, "geometry": { "type": "Point", "coordinates": [ -4.024891, 5.262651 ] } },
{ "type": "Feature", "properties": { "UserID": 0, "osm_id": -1311622029, "name": "Santé III", "type": "neighbourhood", "population": null }, "geometry": { "type": "Point", "coordinates": [ -4.0474274, 5.3367376 ] } },
{ "type": "Feature", "properties": { "UserID": 0, "osm_id": -1311622027, "name": "Soprodav", "type": "neighbourhood", "population": null }, "geometry": { "type": "Point", "coordinates": [ -3.95636, 5.363687 ] } },
{ "type": "Feature", "properties": { "UserID": 0, "osm_id": -1311138022, "name": "Anono", "type": "neighbourhood", "population": null }, "geometry": { "type": "Point", "coordinates": [ -3.9735912, 5.3421387 ] } },
{ "type": "Feature", "properties": { "UserID": 0, "osm_id": -1289191208, "name": "Sable", "type": "neighbourhood", "population": null }, "geometry": { "type": "Point", "coordinates": [ -4.0681862, 5.3570522 ] } },
{ "type": "Feature", "properties": { "UserID": 0, "osm_id": -1288597101, "name": "Cité Ngouan 1", "type": "neighbourhood", "population": null }, "geometry": { "type": "Point", "coordinates": [ -4.1043547, 5.327792 ] } },
{ "type": "Feature", "properties": { "UserID": 0, "osm_id": -1199557346, "name": "Quartier LEM", "type": "neighbourhood", "population": null }, "geometry": { "type": "Point", "coordinates": [ -4.0769674, 5.332069 ] } },
{ "type": "Feature", "properties": { "UserID": 0, "osm_id": -1186753166, "name": "Gabriel Gare", "type": "neighbourhood", "population": null }, "geometry": { "type": "Point", "coordinates": [ -4.0717955, 5.3571613 ] } },
{ "type": "Feature", "properties": { "UserID": 0, "osm_id": -1171165329, "name": "Cité Verdoyante", "type": "neighbourhood", "population": null }, "geometry": { "type": "Point", "coordinates": [ -3.9483268, 5.3360137 ] } },
{ "type": "Feature", "properties": { "UserID": 0, "osm_id": -1160115817, "name": "Cité universitaire de la Riviéra 2", "type": "neighbourhood", "population": null }, "geometry": { "type": "Point", "coordinates": [ -3.9753446, 5.353574 ] } },
{ "type": "Feature", "properties": { "UserID": 0, "osm_id": -1149602026, "name": "Cité Rouge", "type": "neighbourhood", "population": null }, "geometry": { "type": "Point", "coordinates": [ -4.0044562, 5.33784 ] } },
{ "type": "Feature", "properties": { "UserID": 0, "osm_id": -1087624441, "name": "Rosier", "type": "neighbourhood", "population": null }, "geometry": { "type": "Point", "coordinates": [ -3.7804481, 5.21446 ] } },
{ "type": "Feature", "properties": { "UserID": 0, "osm_id": -1056720977, "name": "Indénié", "type": "neighbourhood", "population": null }, "geometry": { "type": "Point", "coordinates": [ -4.0224767, 5.3404293 ] } },
{ "type": "Feature", "properties": { "UserID": 0, "osm_id": -984867869, "name": "Vallon", "type": "neighbourhood", "population": null }, "geometry": { "type": "Point", "coordinates": [ -3.9940085, 5.3585297 ] } },
{ "type": "Feature", "properties": { "UserID": 0, "osm_id": -970530503, "name": "Cité BAD", "type": "neighbourhood", "population": null }, "geometry": { "type": "Point", "coordinates": [ -4.0014725, 5.3477859 ] } },
{ "type": "Feature", "properties": { "UserID": 0, "osm_id": -965755638, "name": "Blockauss", "type": "suburb", "population": null }, "geometry": { "type": "Point", "coordinates": [ -4.0018253, 5.3232164 ] } },
{ "type": "Feature", "properties": { "UserID": 0, "osm_id": -950052570, "name": "Les Jardins de la Riviéra", "type": "neighbourhood", "population": null }, "geometry": { "type": "Point", "coordinates": [ -3.9797059, 5.3501011 ] } },
{ "type": "Feature", "properties": { "UserID": 0, "osm_id": -949421481, "name": "Cité Allabra", "type": "neighbourhood", "population": null }, "geometry": { "type": "Point", "coordinates": [ -3.964966, 5.3529327 ] } },
{ "type": "Feature", "properties": { "UserID": 0, "osm_id": -948000907, "name": "Riviéra Beach", "type": "neighbourhood", "population": null }, "geometry": { "type": "Point", "coordinates": [ -3.9645728, 5.3303805 ] } },
{ "type": "Feature", "properties": { "UserID": 0, "osm_id": -947946769, "name": "Golf Laguna", "type": "neighbourhood", "population": null }, "geometry": { "type": "Point", "coordinates": [ -3.9621934, 5.3284409 ] } },
{ "type": "Feature", "properties": { "UserID": 0, "osm_id": -946619400, "name": "Ciad Primo", "type": "neighbourhood", "population": null }, "geometry": { "type": "Point", "coordinates": [ -3.9494693, 5.3265573 ] } },
{ "type": "Feature", "properties": { "UserID": 0, "osm_id": -941770342, "name": "Cité SynacassCI 1", "type": "neighbourhood", "population": null }, "geometry": { "type": "Point", "coordinates": [ -3.9474791, 5.3442059 ] } },
{ "type": "Feature", "properties": { "UserID": 0, "osm_id": -941171070, "name": "Cité Jacques Prévert", "type": "neighbourhood", "population": null }, "geometry": { "type": "Point", "coordinates": [ -3.9468572, 5.3473087 ] } },
{ "type": "Feature", "properties": { "UserID": 0, "osm_id": -939876756, "name": "Cité ATCI", "type": "neighbourhood", "population": null }, "geometry": { "type": "Point", "coordinates": [ -3.9394918, 5.3641784 ] } },
{ "type": "Feature", "properties": { "UserID": 0, "osm_id": -939125401, "name": "Cité Synatresor", "type": "neighbourhood", "population": null }, "geometry": { "type": "Point", "coordinates": [ -3.9248531, 5.3707238 ] } },
{ "type": "Feature", "properties": { "UserID": 0, "osm_id": -938985008, "name": "Cité Sicogi", "type": "neighbourhood", "population": null }, "geometry": { "type": "Point", "coordinates": [ -3.9179899, 5.3769566 ] } },
{ "type": "Feature", "properties": { "UserID": 0, "osm_id": -938689453, "name": "Résidences Genie 2000", "type": "neighbourhood", "population": null }, "geometry": { "type": "Point", "coordinates": [ -3.9369397, 5.3727258 ] } },
{ "type": "Feature", "properties": { "UserID": 0, "osm_id": -937972992, "name": "Djorogobité", "type": "suburb", "population": null }, "geometry": { "type": "Point", "coordinates": [ -3.9560577, 5.3811305 ] } },
{ "type": "Feature", "properties": { "UserID": 0, "osm_id": -937909134, "name": "Rosier 4e Programme", "type": "neighbourhood", "population": null }, "geometry": { "type": "Point", "coordinates": [ -3.9589351, 5.3822312 ] } },
{ "type": "Feature", "properties": { "UserID": 0, "osm_id": -937909133, "name": "Rosiers 3e Programme Rive Droite", "type": "neighbourhood", "population": null }, "geometry": { "type": "Point", "coordinates": [ -3.9640136, 5.3817303 ] } },
{ "type": "Feature", "properties": { "UserID": 0, "osm_id": -937890704, "name": "Rosiers 3e Programme Rive Gauche", "type": "neighbourhood", "population": null }, "geometry": { "type": "Point", "coordinates": [ -3.9660837, 5.3815535 ] } },
{ "type": "Feature", "properties": { "UserID": 0, "osm_id": -937099681, "name": "Rosiers 1er Programme", "type": "neighbourhood", "population": null }, "geometry": { "type": "Point", "coordinates": [ -3.9643929, 5.3750724 ] } },
{ "type": "Feature", "properties": { "UserID": 0, "osm_id": -937099680, "name": "Rosiers 2e Programme", "type": "neighbourhood", "population": null }, "geometry": { "type": "Point", "coordinates": [ -3.9649302, 5.3778455 ] } },
{ "type": "Feature", "properties": { "UserID": 0, "osm_id": -936993859, "name": "Caféier", "type": "suburb", "population": null }, "geometry": { "type": "Point", "coordinates": [ -3.9734902, 5.3957043 ] } },
{ "type": "Feature", "properties": { "UserID": 0, "osm_id": -936993858, "name": "Riviéra Bonoumin", "type": "suburb", "population": null }, "geometry": { "type": "Point", "coordinates": [ -3.9749847, 5.3794118 ] } },
{ "type": "Feature", "properties": { "UserID": 0, "osm_id": -936901674, "name": "Rosiers 5e Programme", "type": "neighbourhood", "population": null }, "geometry": { "type": "Point", "coordinates": [ -3.9677256, 5.3895754 ] } },
{ "type": "Feature", "properties": { "UserID": 0, "osm_id": -936901673, "name": "Sipim 3", "type": "neighbourhood", "population": null }, "geometry": { "type": "Point", "coordinates": [ -3.9661886, 5.3850195 ] } },
{ "type": "Feature", "properties": { "UserID": 0, "osm_id": -936834174, "name": "Cité Star 11", "type": "neighbourhood", "population": null }, "geometry": { "type": "Point", "coordinates": [ -3.973662, 5.3925234 ] } },
{ "type": "Feature", "properties": { "UserID": 0, "osm_id": -936834173, "name": "Vision 2000", "type": "neighbourhood", "population": null }, "geometry": { "type": "Point", "coordinates": [ -3.9733093, 5.3881002 ] } },
{ "type": "Feature", "properties": { "UserID": 0, "osm_id": -936684027, "name": "Star 12", "type": "neighbourhood", "population": null }, "geometry": { "type": "Point", "coordinates": [ -3.9711122, 5.3854111 ] } },
{ "type": "Feature", "properties": { "UserID": 0, "osm_id": -936646507, "name": "Star 14", "type": "neighbourhood", "population": null }, "geometry": { "type": "Point", "coordinates": [ -3.969961, 5.3820261 ] } },
{ "type": "Feature", "properties": { "UserID": 0, "osm_id": -936241608, "name": "Abri 2000 Émeraude 4", "type": "neighbourhood", "population": null }, "geometry": { "type": "Point", "coordinates": [ -3.9704894, 5.3765094 ] } },
{ "type": "Feature", "properties": { "UserID": 0, "osm_id": -936150542, "name": "Cité Soleil 3", "type": "neighbourhood", "population": null }, "geometry": { "type": "Point", "coordinates": [ -3.9779744, 5.3903643 ] } },
{ "type": "Feature", "properties": { "UserID": 0, "osm_id": -935612928, "name": "Cité Angré Star 10", "type": "neighbourhood", "population": null }, "geometry": { "type": "Point", "coordinates": [ -3.9816818, 5.3998762 ] } },
{ "type": "Feature", "properties": { "UserID": 0, "osm_id": -935612927, "name": "Cité BCEAO", "type": "neighbourhood", "population": null }, "geometry": { "type": "Point", "coordinates": [ -3.979744, 5.3994708 ] } },
{ "type": "Feature", "properties": { "UserID": 0, "osm_id": -935612926, "name": "Cité Sagesim", "type": "neighbourhood", "population": null }, "geometry": { "type": "Point", "coordinates": [ -3.9745152, 5.397462 ] } },
{ "type": "Feature", "properties": { "UserID": 0, "osm_id": -935534731, "name": "Cité Abri 2000", "type": "neighbourhood", "population": null }, "geometry": { "type": "Point", "coordinates": [ -3.975293, 5.4015884 ] } },
{ "type": "Feature", "properties": { "UserID": 0, "osm_id": -935534730, "name": "Cité Caféier 6", "type": "neighbourhood", "population": null }, "geometry": { "type": "Point", "coordinates": [ -3.9768845, 5.4019341 ] } },
{ "type": "Feature", "properties": { "UserID": 0, "osm_id": -935534729, "name": "Cité Soleil 1", "type": "neighbourhood", "population": null }, "geometry": { "type": "Point", "coordinates": [ -3.9771631, 5.3999422 ] } },
{ "type": "Feature", "properties": { "UserID": 0, "osm_id": -935534728, "name": "Cité Wedouwel Soleil 2", "type": "neighbourhood", "population": null }, "geometry": { "type": "Point", "coordinates": [ -3.9738372, 5.4002363 ] } },
{ "type": "Feature", "properties": { "UserID": 0, "osm_id": -935393397, "name": "Cité Rosiers 6e Programme", "type": "neighbourhood", "population": null }, "geometry": { "type": "Point", "coordinates": [ -3.9681436, 5.3948638 ] } },
{ "type": "Feature", "properties": { "UserID": 0, "osm_id": -935353828, "name": "Cité Caféier 8", "type": "neighbourhood", "population": null }, "geometry": { "type": "Point", "coordinates": [ -3.970002, 5.4002706 ] } },
{ "type": "Feature", "properties": { "UserID": 0, "osm_id": -935353827, "name": "Cité Rosiers 6e Programme extension", "type": "neighbourhood", "population": null }, "geometry": { "type": "Point", "coordinates": [ -3.9691543, 5.39768 ] } },
{ "type": "Feature", "properties": { "UserID": 0, "osm_id": -935297047, "name": "Cité Les Arcades 1", "type": "neighbourhood", "population": null }, "geometry": { "type": "Point", "coordinates": [ -3.9745866, 5.405139 ] } },
{ "type": "Feature", "properties": { "UserID": 0, "osm_id": -935297046, "name": "Cité Les Arcades 2", "type": "neighbourhood", "population": null }, "geometry": { "type": "Point", "coordinates": [ -3.9740247, 5.4032973 ] } },
{ "type": "Feature", "properties": { "UserID": 0, "osm_id": -932851814, "name": "Cité Sicogi", "type": "neighbourhood", "population": null }, "geometry": { "type": "Point", "coordinates": [ -3.9883127, 5.4009738 ] } },
{ "type": "Feature", "properties": { "UserID": 0, "osm_id": -932811067, "name": "Cité Angré Les Manguires", "type": "neighbourhood", "population": null }, "geometry": { "type": "Point", "coordinates": [ -3.9934601, 5.4002187 ] } },
{ "type": "Feature", "properties": { "UserID": 0, "osm_id": -932774287, "name": "Cité Star 4", "type": "neighbourhood", "population": null }, "geometry": { "type": "Point", "coordinates": [ -3.9926133, 5.4032614 ] } },
{ "type": "Feature", "properties": { "UserID": 0, "osm_id": -932499745, "name": "Cité Angré Les Papayers", "type": "neighbourhood", "population": null }, "geometry": { "type": "Point", "coordinates": [ -3.9934472, 5.396386 ] } },
{ "type": "Feature", "properties": { "UserID": 0, "osm_id": -932499744, "name": "Cité Angré Star 1", "type": "neighbourhood", "population": null }, "geometry": { "type": "Point", "coordinates": [ -3.9938349, 5.3941421 ] } },
{ "type": "Feature", "properties": { "UserID": 0, "osm_id": -932499743, "name": "Cité Angré Star 3", "type": "neighbourhood", "population": null }, "geometry": { "type": "Point", "coordinates": [ -3.992714, 5.3935444 ] } },
{ "type": "Feature", "properties": { "UserID": 0, "osm_id": -930204913, "name": "Riviéra 6", "type": "suburb", "population": null }, "geometry": { "type": "Point", "coordinates": [ -3.9394759, 5.3423823 ] } },
{ "type": "Feature", "properties": { "UserID": 0, "osm_id": -930203314, "name": "Aghien", "type": "suburb", "population": null }, "geometry": { "type": "Point", "coordinates": [ -3.9999677, 5.3881243 ] } },
{ "type": "Feature", "properties": { "UserID": 0, "osm_id": -930203313, "name": "Angré", "type": "suburb", "population": null }, "geometry": { "type": "Point", "coordinates": [ -3.9888107, 5.4040496 ] } },
{ "type": "Feature", "properties": { "UserID": 0, "osm_id": -930203311, "name": "Djibi", "type": "suburb", "population": null }, "geometry": { "type": "Point", "coordinates": [ -3.9819294, 5.4220216 ] } },
{ "type": "Feature", "properties": { "UserID": 0, "osm_id": -930203310, "name": "Genie 2000", "type": "suburb", "population": null }, "geometry": { "type": "Point", "coordinates": [ -3.9250282, 5.3674608 ] } },
{ "type": "Feature", "properties": { "UserID": 0, "osm_id": -928759072, "name": "Cité Colombe", "type": "neighbourhood", "population": null }, "geometry": { "type": "Point", "coordinates": [ -4.0054967, 5.3950266 ] } },
{ "type": "Feature", "properties": { "UserID": 0, "osm_id": -928517205, "name": "Cité Versants 1", "type": "neighbourhood", "population": null }, "geometry": { "type": "Point", "coordinates": [ -4.003581, 5.3849481 ] } },
{ "type": "Feature", "properties": { "UserID": 0, "osm_id": -928517204, "name": "Cité Versants 2", "type": "neighbourhood", "population": null }, "geometry": { "type": "Point", "coordinates": [ -4.0032902, 5.3873646 ] } },
{ "type": "Feature", "properties": { "UserID": 0, "osm_id": -928515203, "name": "Sanon", "type": "neighbourhood", "population": null }, "geometry": { "type": "Point", "coordinates": [ -3.9994649, 5.3865253 ] } },
{ "type": "Feature", "properties": { "UserID": 0, "osm_id": -926231996, "name": "Cité Angré Les Oscars", "type": "neighbourhood", "population": null }, "geometry": { "type": "Point", "coordinates": [ -3.9931108, 5.4061026 ] } },
{ "type": "Feature", "properties": { "UserID": 0, "osm_id": -926231995, "name": "Cité Angré Star 8", "type": "neighbourhood", "population": null }, "geometry": { "type": "Point", "coordinates": [ -3.994969, 5.4071986 ] } },
{ "type": "Feature", "properties": { "UserID": 0, "osm_id": -926119276, "name": "Cité Angré Star 9A", "type": "neighbourhood", "population": null }, "geometry": { "type": "Point", "coordinates": [ -3.9935709, 5.40886 ] } },
{ "type": "Feature", "properties": { "UserID": 0, "osm_id": -904135070, "name": "Quartier Scierie GIB", "type": "neighbourhood", "population": null }, "geometry": { "type": "Point", "coordinates": [ -3.8813386, 5.3332077 ] } },
{ "type": "Feature", "properties": { "UserID": 0, "osm_id": -875605802, "name": "Zone Industriele de Treichville", "type": "neighbourhood", "population": null }, "geometry": { "type": "Point", "coordinates": [ -4.0106208, 5.2810619 ] } },
{ "type": "Feature", "properties": { "UserID": 0, "osm_id": -875182660, "name": "Cité du Port", "type": "neighbourhood", "population": null }, "geometry": { "type": "Point", "coordinates": [ -4.0067825, 5.2883859 ] } },
{ "type": "Feature", "properties": { "UserID": 0, "osm_id": -870773261, "name": "Cité de la Grâce", "type": "neighbourhood", "population": null }, "geometry": { "type": "Point", "coordinates": [ -3.9931594, 5.4192244 ] } },
{ "type": "Feature", "properties": { "UserID": 0, "osm_id": -852117197, "name": "Zone 2b", "type": "suburb", "population": null }, "geometry": { "type": "Point", "coordinates": [ -4.0095446, 5.2996167 ] } },
{ "type": "Feature", "properties": { "UserID": 0, "osm_id": -786376990, "name": "Cité Sicogi Reconciliation", "type": "neighbourhood", "population": null }, "geometry": { "type": "Point", "coordinates": [ -4.0973364, 5.3260177 ] } },
{ "type": "Feature", "properties": { "UserID": 0, "osm_id": -770915902, "name": "Toit vert", "type": "neighbourhood", "population": null }, "geometry": { "type": "Point", "coordinates": [ -4.1079025, 5.3210626 ] } },
{ "type": "Feature", "properties": { "UserID": 0, "osm_id": -648668115, "name": "Quartier Phare", "type": "suburb", "population": null }, "geometry": { "type": "Point", "coordinates": [ -3.7333783, 5.2077637 ] } },
{ "type": "Feature", "properties": { "UserID": 0, "osm_id": -625141814, "name": "Petit Paris", "type": "suburb", "population": null }, "geometry": { "type": "Point", "coordinates": [ -3.7337734, 5.2000452 ] } },
{ "type": "Feature", "properties": { "UserID": 0, "osm_id": -477207113, "name": "Moussikro", "type": "neighbourhood", "population": null }, "geometry": { "type": "Point", "coordinates": [ -4.0510716, 5.3397361 ] } },
{ "type": "Feature", "properties": { "UserID": 0, "osm_id": -473744047, "name": "Quartier Manguier", "type": "neighbourhood", "population": null }, "geometry": { "type": "Point", "coordinates": [ -4.0165119, 5.3556423 ] } },
{ "type": "Feature", "properties": { "UserID": 0, "osm_id": -394529632, "name": "Cité CTAO", "type": "neighbourhood", "population": null }, "geometry": { "type": "Point", "coordinates": [ -3.9557373, 5.3088411 ] } },
{ "type": "Feature", "properties": { "UserID": 0, "osm_id": -337493238, "name": "Cité Lemania", "type": "neighbourhood", "population": null }, "geometry": { "type": "Point", "coordinates": [ -3.9850987, 5.3613242 ] } },
{ "type": "Feature", "properties": { "UserID": 0, "osm_id": -337139882, "name": "Marcory Résidentiel", "type": "neighbourhood", "population": null }, "geometry": { "type": "Point", "coordinates": [ -3.9937419, 5.3115413 ] } },
{ "type": "Feature", "properties": { "UserID": 0, "osm_id": -335313748, "name": "Biabou", "type": "neighbourhood", "population": null }, "geometry": { "type": "Point", "coordinates": [ -3.9838821, 5.440399 ] } },
{ "type": "Feature", "properties": { "UserID": 0, "osm_id": -311345565, "name": "Zone 4a", "type": "neighbourhood", "population": null }, "geometry": { "type": "Point", "coordinates": [ -3.9884293, 5.2968706 ] } },
{ "type": "Feature", "properties": { "UserID": 0, "osm_id": -311345564, "name": "Zone 4b", "type": "neighbourhood", "population": null }, "geometry": { "type": "Point", "coordinates": [ -3.9878814, 5.2920807 ] } },
{ "type": "Feature", "properties": { "UserID": 0, "osm_id": -293258114, "name": "Cité Gestoci", "type": "neighbourhood", "population": null }, "geometry": { "type": "Point", "coordinates": [ -3.9616957, 5.4044132 ] } },
{ "type": "Feature", "properties": { "UserID": 0, "osm_id": -238641809, "name": "Quartier Millionnaire", "type": "neighbourhood", "population": null }, "geometry": { "type": "Point", "coordinates": [ -4.0602387, 5.3542896 ] } },
{ "type": "Feature", "properties": { "UserID": 0, "osm_id": -222048669, "name": "Les Pays-Bas", "type": "neighbourhood", "population": null }, "geometry": { "type": "Point", "coordinates": [ -4.1181395, 5.3276084 ] } },
{ "type": "Feature", "properties": { "UserID": 0, "osm_id": -217106804, "name": "Cité Belles Fleurs", "type": "neighbourhood", "population": null }, "geometry": { "type": "Point", "coordinates": [ -3.991124, 5.3958488 ] } },
{ "type": "Feature", "properties": { "UserID": 0, "osm_id": -196614503, "name": "Bel Air", "type": "neighbourhood", "population": null }, "geometry": { "type": "Point", "coordinates": [ -4.0626885, 5.3459374 ] } },
{ "type": "Feature", "properties": { "UserID": 0, "osm_id": -180151317, "name": "Zone 4", "type": "suburb", "population": null }, "geometry": { "type": "Point", "coordinates": [ -3.9812673, 5.2919417 ] } },
{ "type": "Feature", "properties": { "UserID": 0, "osm_id": -49768277, "name": "Angré Cocoteraie", "type": "neighbourhood", "population": null }, "geometry": { "type": "Point", "coordinates": [ -3.9856012, 5.4131361 ] } },
{ "type": "Feature", "properties": { "UserID": 0, "osm_id": -30329557, "name": "Complexe", "type": "neighbourhood", "population": null }, "geometry": { "type": "Point", "coordinates": [ -4.0650179, 5.341405 ] } },
{ "type": "Feature", "properties": { "UserID": 0, "osm_id": -30329556, "name": "Koweit", "type": "neighbourhood", "population": null }, "geometry": { "type": "Point", "coordinates": [ -4.0544635, 5.3212206 ] } },
{ "type": "Feature", "properties": { "UserID": 0, "osm_id": -30185499, "name": "Figayo", "type": "neighbourhood", "population": null }, "geometry": { "type": "Point", "coordinates": [ -4.0719546, 5.3485916 ] } },
{ "type": "Feature", "properties": { "UserID": 0, "osm_id": -13106761, "name": "Cité Sogefiha", "type": "neighbourhood", "population": null }, "geometry": { "type": "Point", "coordinates": [ -3.998632, 5.338756 ] } },
{ "type": "Feature", "properties": { "UserID": 0, "osm_id": -9073735, "name": "Lauriers 2", "type": "neighbourhood", "population": null }, "geometry": { "type": "Point", "coordinates": [ -4.105489, 5.3241212 ] } },
{ "type": "Feature", "properties": { "UserID": 0, "osm_id": -9059845, "name": "Cité Caféiers", "type": "neighbourhood", "population": null }, "geometry": { "type": "Point", "coordinates": [ -4.1065698, 5.3264163 ] } },
{ "type": "Feature", "properties": { "UserID": 0, "osm_id": 33475221, "name": "Plateau Dokui", "type": "suburb", "population": null }, "geometry": { "type": "Point", "coordinates": [ -4.0009567, 5.3961725 ] } },
{ "type": "Feature", "properties": { "UserID": 0, "osm_id": 33476199, "name": "Dokui Sopim", "type": "neighbourhood", "population": null }, "geometry": { "type": "Point", "coordinates": [ -4.0026847, 5.394265 ] } },
{ "type": "Feature", "properties": { "UserID": 0, "osm_id": 51076075, "name": "Cité CNPS", "type": "neighbourhood", "population": null }, "geometry": { "type": "Point", "coordinates": [ -4.1089409, 5.3249621 ] } },
{ "type": "Feature", "properties": { "UserID": 0, "osm_id": 154422894, "name": "Cité Sodefor Lauriers 11 & 12", "type": "neighbourhood", "population": null }, "geometry": { "type": "Point", "coordinates": [ -4.1115819, 5.3243086 ] } },
{ "type": "Feature", "properties": { "UserID": 0, "osm_id": 196064410, "name": "Niangon à gauche", "type": "neighbourhood", "population": null }, "geometry": { "type": "Point", "coordinates": [ -4.0912883, 5.3245256 ] } },
{ "type": "Feature", "properties": { "UserID": 0, "osm_id": 196064411, "name": "Niangon", "type": "suburb", "population": null }, "geometry": { "type": "Point", "coordinates": [ -4.0982168, 5.3235842 ] } },
{ "type": "Feature", "properties": { "UserID": 0, "osm_id": 196064571, "name": "Niangon à droite", "type": "neighbourhood", "population": null }, "geometry": { "type": "Point", "coordinates": [ -4.1010921, 5.3205458 ] } },
{ "type": "Feature", "properties": { "UserID": 0, "osm_id": 221167221, "name": "Lycée Technique", "type": "suburb", "population": null }, "geometry": { "type": "Point", "coordinates": [ -4.006193, 5.3511259 ] } },
{ "type": "Feature", "properties": { "UserID": 0, "osm_id": 225982262, "name": "Cité Ado", "type": "neighbourhood", "population": null }, "geometry": { "type": "Point", "coordinates": [ -4.086937, 5.3994354 ] } },
{ "type": "Feature", "properties": { "UserID": 0, "osm_id": 256474082, "name": "Godoumé", "type": "neighbourhood", "population": null }, "geometry": { "type": "Point", "coordinates": [ -4.1936295, 5.3183865 ] } },
{ "type": "Feature", "properties": { "UserID": 0, "osm_id": 256474083, "name": "Cité La grace", "type": "neighbourhood", "population": null }, "geometry": { "type": "Point", "coordinates": [ -4.2277371, 5.3225972 ] } },
{ "type": "Feature", "properties": { "UserID": 0, "osm_id": 398287552, "name": "Fin goudron", "type": "neighbourhood", "population": null }, "geometry": { "type": "Point", "coordinates": [ -4.1126391, 5.3221328 ] } },
{ "type": "Feature", "properties": { "UserID": 0, "osm_id": 431044993, "name": "Cité CIE n°5", "type": "neighbourhood", "population": null }, "geometry": { "type": "Point", "coordinates": [ -3.9858238, 5.257987 ] } },
{ "type": "Feature", "properties": { "UserID": 0, "osm_id": 449982097, "name": "Micao", "type": "suburb", "population": null }, "geometry": { "type": "Point", "coordinates": [ -4.09776, 5.3815983 ] } },
{ "type": "Feature", "properties": { "UserID": 0, "osm_id": 450897338, "name": "Cité Caféier 2", "type": "neighbourhood", "population": null }, "geometry": { "type": "Point", "coordinates": [ -3.9870515, 5.4069132 ] } },
{ "type": "Feature", "properties": { "UserID": 0, "osm_id": 450897339, "name": "Cité Stars 5", "type": "neighbourhood", "population": null }, "geometry": { "type": "Point", "coordinates": [ -3.9890148, 5.4060854 ] } },
{ "type": "Feature", "properties": { "UserID": 0, "osm_id": 627052983, "name": "Belleville", "type": "neighbourhood", "population": null }, "geometry": { "type": "Point", "coordinates": [ -3.9945808, 5.43196 ] } },
{ "type": "Feature", "properties": { "UserID": 0, "osm_id": 627092236, "name": "Kennedy", "type": "neighbourhood", "population": null }, "geometry": { "type": "Point", "coordinates": [ -4.0083536, 5.4194838 ] } },
{ "type": "Feature", "properties": { "UserID": 0, "osm_id": 637319147, "name": "Jeankouamekro", "type": "neighbourhood", "population": null }, "geometry": { "type": "Point", "coordinates": [ -4.0859566, 5.2750549 ] } },
{ "type": "Feature", "properties": { "UserID": 0, "osm_id": 637319148, "name": "Abiatrana", "type": "neighbourhood", "population": null }, "geometry": { "type": "Point", "coordinates": [ -4.0740185, 5.2710699 ] } },
{ "type": "Feature", "properties": { "UserID": 0, "osm_id": 680377270, "name": "Cité SGBCI", "type": "neighbourhood", "population": null }, "geometry": { "type": "Point", "coordinates": [ -4.059739, 5.3332746 ] } },
{ "type": "Feature", "properties": { "UserID": 0, "osm_id": 746303327, "name": "Cite angré Star 9B", "type": "neighbourhood", "population": null }, "geometry": { "type": "Point", "coordinates": [ -3.9937436, 5.4104264 ] } },
{ "type": "Feature", "properties": { "UserID": 0, "osm_id": 767385904, "name": "Lauriers Sacos", "type": "neighbourhood", "population": null }, "geometry": { "type": "Point", "coordinates": [ -4.1068812, 5.3251147 ] } },
{ "type": "Feature", "properties": { "UserID": 0, "osm_id": 798100098, "name": "Arras", "type": "neighbourhood", "population": null }, "geometry": { "type": "Point", "coordinates": [ -4.0033894, 5.2999476 ] } },
{ "type": "Feature", "properties": { "UserID": 0, "osm_id": 801160562, "name": "Camp Baoulé", "type": "neighbourhood", "population": null }, "geometry": { "type": "Point", "coordinates": [ -4.0730846, 5.2772042 ] } },
{ "type": "Feature", "properties": { "UserID": 0, "osm_id": 985789525, "name": "Cité Bracodi", "type": "neighbourhood", "population": null }, "geometry": { "type": "Point", "coordinates": [ -4.1074406, 5.329573 ] } },
{ "type": "Feature", "properties": { "UserID": 0, "osm_id": 987550283, "name": "Niangon Sicogi Canal", "type": "neighbourhood", "population": null }, "geometry": { "type": "Point", "coordinates": [ -4.0899155, 5.3224028 ] } },
{ "type": "Feature", "properties": { "UserID": 0, "osm_id": 991778157, "name": "Coprim Zenith", "type": "neighbourhood", "population": null }, "geometry": { "type": "Point", "coordinates": [ -4.0944908, 5.3259366 ] } },
{ "type": "Feature", "properties": { "UserID": 0, "osm_id": 992351926, "name": "Anyama Ahouabo", "type": "neighbourhood", "population": null }, "geometry": { "type": "Point", "coordinates": [ -4.025336, 5.5033184 ] } },
{ "type": "Feature", "properties": { "UserID": 0, "osm_id": 992354225, "name": "Anyama Adjamé", "type": "neighbourhood", "population": null }, "geometry": { "type": "Point", "coordinates": [ -4.0315385, 5.4894459 ] } },
{ "type": "Feature", "properties": { "UserID": 0, "osm_id": 1007594325, "name": "Cité Benet", "type": "neighbourhood", "population": null }, "geometry": { "type": "Point", "coordinates": [ -3.9299352, 5.3791126 ] } },
{ "type": "Feature", "properties": { "UserID": 0, "osm_id": 1031988914, "name": "Saint Michel", "type": "neighbourhood", "population": null }, "geometry": { "type": "Point", "coordinates": [ -4.0220193, 5.3454831 ] } },
{ "type": "Feature", "properties": { "UserID": 0, "osm_id": 1062144625, "name": "Jérusalem", "type": "suburb", "population": null }, "geometry": { "type": "Point", "coordinates": [ -4.0403882, 5.3160389 ] } },
{ "type": "Feature", "properties": { "UserID": 0, "osm_id": 1064322829, "name": "Nouveau bureau", "type": "neighbourhood", "population": null }, "geometry": { "type": "Point", "coordinates": [ -4.0611063, 5.3332829 ] } },
{ "type": "Feature", "properties": { "UserID": 0, "osm_id": 1065925525, "name": "Selmer ponty", "type": "neighbourhood", "population": null }, "geometry": { "type": "Point", "coordinates": [ -4.0704859, 5.3435461 ] } },
{ "type": "Feature", "properties": { "UserID": 0, "osm_id": 1067971826, "name": "Lokoa extention", "type": "neighbourhood", "population": null }, "geometry": { "type": "Point", "coordinates": [ -4.1061352, 5.3152621 ] } },
{ "type": "Feature", "properties": { "UserID": 0, "osm_id": 1073145289, "name": "Banco 2", "type": "neighbourhood", "population": null }, "geometry": { "type": "Point", "coordinates": [ -4.0797043, 5.3515238 ] } },
{ "type": "Feature", "properties": { "UserID": 0, "osm_id": 1075733925, "name": "Batim 2", "type": "neighbourhood", "population": null }, "geometry": { "type": "Point", "coordinates": [ -4.0919873, 5.3602153 ] } },
{ "type": "Feature", "properties": { "UserID": 0, "osm_id": 1077443625, "name": "Cité Élisée", "type": "neighbourhood", "population": null }, "geometry": { "type": "Point", "coordinates": [ -4.0941367, 5.3453583 ] } },
{ "type": "Feature", "properties": { "UserID": 0, "osm_id": 1082720126, "name": "Cité Sir", "type": "neighbourhood", "population": null }, "geometry": { "type": "Point", "coordinates": [ -3.9296024, 5.3918293 ] } },
{ "type": "Feature", "properties": { "UserID": 0, "osm_id": 1082790325, "name": "Faya Cité Petroci", "type": "neighbourhood", "population": null }, "geometry": { "type": "Point", "coordinates": [ -3.9259777, 5.3770245 ] } },
{ "type": "Feature", "properties": { "UserID": 0, "osm_id": 1082846225, "name": "Figuier", "type": "neighbourhood", "population": null }, "geometry": { "type": "Point", "coordinates": [ -3.911333, 5.3786052 ] } },
{ "type": "Feature", "properties": { "UserID": 0, "osm_id": 1082863625, "name": "Feh Kessé", "type": "neighbourhood", "population": null }, "geometry": { "type": "Point", "coordinates": [ -3.9101062, 5.3733446 ] } },
{ "type": "Feature", "properties": { "UserID": 0, "osm_id": 1082894025, "name": "Akoue Santé 2", "type": "neighbourhood", "population": null }, "geometry": { "type": "Point", "coordinates": [ -3.9064294, 5.3827147 ] } },
{ "type": "Feature", "properties": { "UserID": 0, "osm_id": 1083020126, "name": "Adjamé", "type": "neighbourhood", "population": null }, "geometry": { "type": "Point", "coordinates": [ -3.8727367, 5.347945 ] } },
{ "type": "Feature", "properties": { "UserID": 0, "osm_id": 1083027025, "name": "Gbagba Extension", "type": "neighbourhood", "population": null }, "geometry": { "type": "Point", "coordinates": [ -3.8849614, 5.3405271 ] } },
{ "type": "Feature", "properties": { "UserID": 0, "osm_id": 1083214325, "name": "Blanchon", "type": "neighbourhood", "population": null }, "geometry": { "type": "Point", "coordinates": [ -3.8807891, 5.35791 ] } },
{ "type": "Feature", "properties": { "UserID": 0, "osm_id": 1083367925, "name": "Faya Saint Paul", "type": "neighbourhood", "population": null }, "geometry": { "type": "Point", "coordinates": [ -3.9340018, 5.3677234 ] } },
{ "type": "Feature", "properties": { "UserID": 0, "osm_id": 1083413728, "name": "Abatta BCEAO", "type": "neighbourhood", "population": null }, "geometry": { "type": "Point", "coordinates": [ -3.9160259, 5.3448722 ] } },
{ "type": "Feature", "properties": { "UserID": 0, "osm_id": 1083434425, "name": "Abatta Sicta", "type": "neighbourhood", "population": null }, "geometry": { "type": "Point", "coordinates": [ -3.924121, 5.3378374 ] } },
{ "type": "Feature", "properties": { "UserID": 0, "osm_id": 1083489127, "name": "Abatta Cité Police", "type": "neighbourhood", "population": null }, "geometry": { "type": "Point", "coordinates": [ -3.9227871, 5.3583471 ] } },
{ "type": "Feature", "properties": { "UserID": 0, "osm_id": 1085265426, "name": "Lauriers 9", "type": "neighbourhood", "population": null }, "geometry": { "type": "Point", "coordinates": [ -3.930003, 5.3626486 ] } },
{ "type": "Feature", "properties": { "UserID": 0, "osm_id": 1085679626, "name": "Triangle", "type": "neighbourhood", "population": null }, "geometry": { "type": "Point", "coordinates": [ -3.9527512, 5.3619254 ] } },
{ "type": "Feature", "properties": { "UserID": 0, "osm_id": 1085770026, "name": "Saint Viateur", "type": "neighbourhood", "population": null }, "geometry": { "type": "Point", "coordinates": [ -3.9529136, 5.3829888 ] } },
{ "type": "Feature", "properties": { "UserID": 0, "osm_id": 1085963126, "name": "CNPS 9 tranche", "type": "neighbourhood", "population": null }, "geometry": { "type": "Point", "coordinates": [ -3.9751909, 5.3844744 ] } },
{ "type": "Feature", "properties": { "UserID": 0, "osm_id": 1085981325, "name": "9 tranche", "type": "suburb", "population": null }, "geometry": { "type": "Point", "coordinates": [ -3.9767357, 5.387683 ] } },
{ "type": "Feature", "properties": { "UserID": 0, "osm_id": 1094925625, "name": "Dokui Djomi", "type": "neighbourhood", "population": null }, "geometry": { "type": "Point", "coordinates": [ -3.9989706, 5.3948275 ] } },
{ "type": "Feature", "properties": { "UserID": 0, "osm_id": 1095252632, "name": "Colombie", "type": "neighbourhood", "population": null }, "geometry": { "type": "Point", "coordinates": [ -4.0039504, 5.375289 ] } },
{ "type": "Feature", "properties": { "UserID": 0, "osm_id": 1095504926, "name": "Gobelet village", "type": "neighbourhood", "population": null }, "geometry": { "type": "Point", "coordinates": [ -3.9832482, 5.3669144 ] } },
{ "type": "Feature", "properties": { "UserID": 0, "osm_id": 1097705225, "name": "Attoban", "type": "neighbourhood", "population": null }, "geometry": { "type": "Point", "coordinates": [ -3.9783974, 5.3631892 ] } },
{ "type": "Feature", "properties": { "UserID": 0, "osm_id": 1098401636, "name": "Divo", "type": "neighbourhood", "population": null }, "geometry": { "type": "Point", "coordinates": [ -3.9501886, 5.3067951 ] } },
{ "type": "Feature", "properties": { "UserID": 0, "osm_id": 1103249225, "name": "Pailler", "type": "neighbourhood", "population": null }, "geometry": { "type": "Point", "coordinates": [ -4.013317, 5.376709 ] } },
{ "type": "Feature", "properties": { "UserID": 0, "osm_id": 1103586926, "name": "Anador", "type": "neighbourhood", "population": null }, "geometry": { "type": "Point", "coordinates": [ -4.0142536, 5.4107848 ] } },
{ "type": "Feature", "properties": { "UserID": 0, "osm_id": 1103643526, "name": "Étoile", "type": "neighbourhood", "population": null }, "geometry": { "type": "Point", "coordinates": [ -4.0204538, 5.4285944 ] } },
{ "type": "Feature", "properties": { "UserID": 0, "osm_id": 1103751525, "name": "Sagbe celeste", "type": "neighbourhood", "population": null }, "geometry": { "type": "Point", "coordinates": [ -4.0282315, 5.4144547 ] } },
{ "type": "Feature", "properties": { "UserID": 0, "osm_id": 1103768125, "name": "Sagbé", "type": "suburb", "population": null }, "geometry": { "type": "Point", "coordinates": [ -4.0308156, 5.4186526 ] } },
{ "type": "Feature", "properties": { "UserID": 0, "osm_id": 1106440327, "name": "Cobakro", "type": "neighbourhood", "population": null }, "geometry": { "type": "Point", "coordinates": [ -4.0838368, 5.4491303 ] } },
{ "type": "Feature", "properties": { "UserID": 0, "osm_id": 1106460425, "name": "Belleville", "type": "neighbourhood", "population": null }, "geometry": { "type": "Point", "coordinates": [ -4.0484757, 5.4647141 ] } },
{ "type": "Feature", "properties": { "UserID": 0, "osm_id": 1112462429, "name": "Abobo Adjame", "type": "neighbourhood", "population": null }, "geometry": { "type": "Point", "coordinates": [ -4.02095, 5.3852433 ] } },
{ "type": "Feature", "properties": { "UserID": 0, "osm_id": 1112616426, "name": "Latin", "type": "neighbourhood", "population": null }, "geometry": { "type": "Point", "coordinates": [ -4.0207839, 5.359049 ] } },
{ "type": "Feature", "properties": { "UserID": 0, "osm_id": 1112640925, "name": "Bracodi", "type": "neighbourhood", "population": null }, "geometry": { "type": "Point", "coordinates": [ -4.0252263, 5.3615976 ] } },
{ "type": "Feature", "properties": { "UserID": 0, "osm_id": 1114918525, "name": "Quartier Éléphant", "type": "neighbourhood", "population": null }, "geometry": { "type": "Point", "coordinates": [ -3.8882662, 5.2424643 ] } },
{ "type": "Feature", "properties": { "UserID": 0, "osm_id": 1115294825, "name": "Prodomo", "type": "neighbourhood", "population": null }, "geometry": { "type": "Point", "coordinates": [ -3.9506368, 5.300459 ] } },
{ "type": "Feature", "properties": { "UserID": 0, "osm_id": 1115339127, "name": "Koumassi Sicogi", "type": "neighbourhood", "population": null }, "geometry": { "type": "Point", "coordinates": [ -3.9649906, 5.2833505 ] } },
{ "type": "Feature", "properties": { "UserID": 0, "osm_id": 1116992525, "name": "Nanan Yamousso", "type": "neighbourhood", "population": null }, "geometry": { "type": "Point", "coordinates": [ -4.0051935, 5.3070081 ] } },
{ "type": "Feature", "properties": { "UserID": 0, "osm_id": 1117053925, "name": "Massarana", "type": "neighbourhood", "population": null }, "geometry": { "type": "Point", "coordinates": [ -3.98472, 5.2997563 ] } },
{ "type": "Feature", "properties": { "UserID": 0, "osm_id": 1117304641, "name": "Fanny", "type": "neighbourhood", "population": null }, "geometry": { "type": "Point", "coordinates": [ -3.9483904, 5.3122179 ] } },
{ "type": "Feature", "properties": { "UserID": 0, "osm_id": 1117307948, "name": "Campement", "type": "neighbourhood", "population": null }, "geometry": { "type": "Point", "coordinates": [ -3.9438767, 5.3043885 ] } },
{ "type": "Feature", "properties": { "UserID": 0, "osm_id": 1119115025, "name": "Anonkoua", "type": "neighbourhood", "population": null }, "geometry": { "type": "Point", "coordinates": [ -4.0484477, 5.434182 ] } },
{ "type": "Feature", "properties": { "UserID": 0, "osm_id": 1119616826, "name": "Nouveau camp", "type": "neighbourhood", "population": null }, "geometry": { "type": "Point", "coordinates": [ -3.9405624, 5.3809461 ] } },
{ "type": "Feature", "properties": { "UserID": 0, "osm_id": 1126143004, "name": "N’dotré", "type": "neighbourhood", "population": null }, "geometry": { "type": "Point", "coordinates": [ -4.0720117, 5.4455615 ] } },
{ "type": "Feature", "properties": { "UserID": 0, "osm_id": 1128300617, "name": "Habitat", "type": "neighbourhood", "population": null }, "geometry": { "type": "Point", "coordinates": [ -4.0239465, 5.358873 ] } },
{ "type": "Feature", "properties": { "UserID": 0, "osm_id": 1134319018, "name": "Cité Sicogi 1001 logements", "type": "quarter", "population": null }, "geometry": { "type": "Point", "coordinates": [ -3.9874256, 5.3999971 ] } },
{ "type": "Feature", "properties": { "UserID": 0, "osm_id": 1134319019, "name": "220 logements", "type": "neighbourhood", "population": null }, "geometry": { "type": "Point", "coordinates": [ -4.0177667, 5.35162 ] } },
{ "type": "Feature", "properties": { "UserID": 0, "osm_id": 1135168965, "name": "SCI Les Rosiers", "type": "suburb", "population": null }, "geometry": { "type": "Point", "coordinates": [ -3.9689505, 5.392376 ] } },
{ "type": "Feature", "properties": { "UserID": 0, "osm_id": 1136099387, "name": "8 tranche", "type": "suburb", "population": null }, "geometry": { "type": "Point", "coordinates": [ -3.9777804, 5.3973162 ] } },
{ "type": "Feature", "properties": { "UserID": 0, "osm_id": 1136099388, "name": "7 tranche", "type": "suburb", "population": null }, "geometry": { "type": "Point", "coordinates": [ -3.989153, 5.3926164 ] } },
{ "type": "Feature", "properties": { "UserID": 0, "osm_id": 1169945025, "name": "Cité Promogim Athena", "type": "neighbourhood", "population": null }, "geometry": { "type": "Point", "coordinates": [ -3.9057803, 5.3824629 ] } },
{ "type": "Feature", "properties": { "UserID": 0, "osm_id": 1203360155, "name": "Judée", "type": "neighbourhood", "population": null }, "geometry": { "type": "Point", "coordinates": [ -4.1073129, 5.3717632 ] } },
{ "type": "Feature", "properties": { "UserID": 0, "osm_id": 1323559656, "name": "Cité Star 5", "type": "neighbourhood", "population": null }, "geometry": { "type": "Point", "coordinates": [ -3.9940614, 5.4032869 ] } },
{ "type": "Feature", "properties": { "UserID": 0, "osm_id": 1444573576, "name": "Quartier France-Amérique", "type": "neighbourhood", "population": null }, "geometry": { "type": "Point", "coordinates": [ -4.0124913, 5.3014965 ] } },
{ "type": "Feature", "properties": { "UserID": 0, "osm_id": 1525004813, "name": "Eloka-To", "type": "neighbourhood", "population": null }, "geometry": { "type": "Point", "coordinates": [ -3.7428155, 5.3026695 ] } },
{ "type": "Feature", "properties": { "UserID": 0, "osm_id": 1543582743, "name": "Cité Synacassci 2", "type": "neighbourhood", "population": null }, "geometry": { "type": "Point", "coordinates": [ -3.9445619, 5.3455808 ] } },
{ "type": "Feature", "properties": { "UserID": 0, "osm_id": 1546597489, "name": "Cité Saco II", "type": "neighbourhood", "population": null }, "geometry": { "type": "Point", "coordinates": [ -4.1047215, 5.3499408 ] } },
{ "type": "Feature", "properties": { "UserID": 0, "osm_id": 1599338728, "name": "Ana", "type": "neighbourhood", "population": null }, "geometry": { "type": "Point", "coordinates": [ -3.878689, 5.3262729 ] } },
{ "type": "Feature", "properties": { "UserID": 0, "osm_id": 1599347756, "name": "Agban", "type": "neighbourhood", "population": null }, "geometry": { "type": "Point", "coordinates": [ -3.8555329, 5.3107035 ] } },
{ "type": "Feature", "properties": { "UserID": 0, "osm_id": 1636856916, "name": "Espace Temps Libre", "type": "square", "population": null }, "geometry": { "type": "Point", "coordinates": [ -4.0068166, 5.3759719 ] } },
{ "type": "Feature", "properties": { "UserID": 0, "osm_id": 1661500944, "name": "N'Dohi Yapi Raymond", "type": "square", "population": null }, "geometry": { "type": "Point", "coordinates": [ -3.9496936, 5.2892175 ] } },
{ "type": "Feature", "properties": { "UserID": 0, "osm_id": 1775114559, "name": "Cité Fairmont 2", "type": "neighbourhood", "population": null }, "geometry": { "type": "Point", "coordinates": [ -4.0360594, 5.3586274 ] } },
{ "type": "Feature", "properties": { "UserID": 0, "osm_id": 1775114560, "name": "Attécoubé 3", "type": "neighbourhood", "population": null }, "geometry": { "type": "Point", "coordinates": [ -4.0510798, 5.3522182 ] } },
{ "type": "Feature", "properties": { "UserID": 0, "osm_id": 1775114561, "name": "Jean Paul II", "type": "neighbourhood", "population": null }, "geometry": { "type": "Point", "coordinates": [ -4.0410483, 5.3293047 ] } },
{ "type": "Feature", "properties": { "UserID": 0, "osm_id": 1775114562, "name": "Santé-village", "type": "neighbourhood", "population": null }, "geometry": { "type": "Point", "coordinates": [ -4.0392459, 5.3332572 ] } },
{ "type": "Feature", "properties": { "UserID": 0, "osm_id": 1775114563, "name": "Lackman", "type": "neighbourhood", "population": null }, "geometry": { "type": "Point", "coordinates": [ -4.0353298, 5.3190815 ] } },
{ "type": "Feature", "properties": { "UserID": 0, "osm_id": 1775114564, "name": "Jérusalem-résidentiel", "type": "neighbourhood", "population": null }, "geometry": { "type": "Point", "coordinates": [ -4.0396857, 5.3138897 ] } },
{ "type": "Feature", "properties": { "UserID": 0, "osm_id": 1775114565, "name": "Jérusalem 2", "type": "neighbourhood", "population": null }, "geometry": { "type": "Point", "coordinates": [ -4.041574, 5.3190174 ] } },
{ "type": "Feature", "properties": { "UserID": 0, "osm_id": 1775114566, "name": "Jérusalem 1", "type": "neighbourhood", "population": null }, "geometry": { "type": "Point", "coordinates": [ -4.041059, 5.31718 ] } },
{ "type": "Feature", "properties": { "UserID": 0, "osm_id": 1775114567, "name": "Abobo Doumé village", "type": "neighbourhood", "population": null }, "geometry": { "type": "Point", "coordinates": [ -4.0401149, 5.3091252 ] } },
{ "type": "Feature", "properties": { "UserID": 0, "osm_id": 1831753792, "name": "Quartier Saint Joseph", "type": "neighbourhood", "population": null }, "geometry": { "type": "Point", "coordinates": [ -4.0340102, 5.3528164 ] } },
{ "type": "Feature", "properties": { "UserID": 0, "osm_id": 1831753793, "name": "Quartier École", "type": "neighbourhood", "population": null }, "geometry": { "type": "Point", "coordinates": [ -4.0327227, 5.3487678 ] } },
{ "type": "Feature", "properties": { "UserID": 0, "osm_id": 1831753794, "name": "Quartier Mosquée", "type": "neighbourhood", "population": null }, "geometry": { "type": "Point", "coordinates": [ -4.0355015, 5.3497506 ] } },
{ "type": "Feature", "properties": { "UserID": 0, "osm_id": 1831753795, "name": "Bidjanté", "type": "neighbourhood", "population": null }, "geometry": { "type": "Point", "coordinates": [ -4.032948, 5.3443775 ] } },
{ "type": "Feature", "properties": { "UserID": 0, "osm_id": 1831753797, "name": "Gbebouto", "type": "neighbourhood", "population": null }, "geometry": { "type": "Point", "coordinates": [ -4.0357671, 5.3544481 ] } },
{ "type": "Feature", "properties": { "UserID": 0, "osm_id": 1835941777, "name": "Anani-Amamou", "type": "neighbourhood", "population": null }, "geometry": { "type": "Point", "coordinates": [ -3.8688398, 5.2357513 ] } },
{ "type": "Feature", "properties": { "UserID": 0, "osm_id": 1919722013, "name": "Diop", "type": "neighbourhood", "population": null }, "geometry": { "type": "Point", "coordinates": [ -4.1099847, 5.3144518 ] } },
{ "type": "Feature", "properties": { "UserID": 0, "osm_id": 2036057185, "name": "Cité marine", "type": "neighbourhood", "population": null }, "geometry": { "type": "Point", "coordinates": [ -4.1090669, 5.3170368 ] } },
{ "type": "Feature", "properties": { "UserID": 0, "osm_id": -2026835908, "name": "Gbamnan Djidan 1", "type": "neighbourhood", "population": null }, "geometry": { "type": "Point", "coordinates": [ -4.0535345, 5.3340509 ] } },
{ "type": "Feature", "properties": { "UserID": 0, "osm_id": -1803242780, "name": "Les résidences Akwaba", "type": "neighbourhood", "population": null }, "geometry": { "type": "Point", "coordinates": [ -4.0690118, 5.491864 ] } },
{ "type": "Feature", "properties": { "UserID": 0, "osm_id": -1793142406, "name": "Cité SGBCI", "type": "neighbourhood", "population": null }, "geometry": { "type": "Point", "coordinates": [ -4.0810628, 5.3275572 ] } },
{ "type": "Feature", "properties": { "UserID": 0, "osm_id": -1563699580, "name": "Cité Olympe Promogim", "type": "neighbourhood", "population": null }, "geometry": { "type": "Point", "coordinates": [ -3.8881623, 5.3758236 ] } },
{ "type": "Feature", "properties": { "UserID": 0, "osm_id": -1533743125, "name": "Bromakoté", "type": "neighbourhood", "population": null }, "geometry": { "type": "Point", "coordinates": [ -4.0304911, 5.3523998 ] } },
{ "type": "Feature", "properties": { "UserID": 0, "osm_id": -1533743124, "name": "Yao Séhi", "type": "neighbourhood", "population": null }, "geometry": { "type": "Point", "coordinates": [ -4.0746027, 5.3343735 ] } },
{ "type": "Feature", "properties": { "UserID": 0, "osm_id": -1533743123, "name": "Doukouré", "type": "neighbourhood", "population": null }, "geometry": { "type": "Point", "coordinates": [ -4.0746081, 5.3354044 ] } },
{ "type": "Feature", "properties": { "UserID": 0, "osm_id": -1450577268, "name": "Gbamnan Djidan 2 Franceville", "type": "neighbourhood", "population": null }, "geometry": { "type": "Point", "coordinates": [ -4.0926017, 5.3429427 ] } },
{ "type": "Feature", "properties": { "UserID": 0, "osm_id": -280647496, "name": "Académie résidentiel", "type": "neighbourhood", "population": null }, "geometry": { "type": "Point", "coordinates": [ -4.1125032, 5.3141097 ] } },
{ "type": "Feature", "properties": { "UserID": 0, "osm_id": -31227709, "name": "Cité La Nouvelle Jérusalem", "type": "quarter", "population": null }, "geometry": { "type": "Point", "coordinates": [ -3.9750029, 5.3533213 ] } },
{ "type": "Feature", "properties": { "UserID": 0, "osm_id": -31204088, "name": "Cité Sogefia De Riviera2", "type": "quarter", "population": null }, "geometry": { "type": "Point", "coordinates": [ -3.9728922, 5.3540351 ] } },
{ "type": "Feature", "properties": { "UserID": 0, "osm_id": 302547138, "name": "Amba", "type": "neighbourhood", "population": null }, "geometry": { "type": "Point", "coordinates": [ -4.1087364, 5.2888639 ] } },
{ "type": "Feature", "properties": { "UserID": 0, "osm_id": 302574125, "name": "Bokan", "type": "neighbourhood", "population": null }, "geometry": { "type": "Point", "coordinates": [ -4.1030233, 5.2891824 ] } },
{ "type": "Feature", "properties": { "UserID": 0, "osm_id": 929298104, "name": "Fanny", "type": "neighbourhood", "population": null }, "geometry": { "type": "Point", "coordinates": [ -4.0634689, 5.3611277 ] } },
{ "type": "Feature", "properties": { "UserID": 0, "osm_id": 1316036111, "name": "Score", "type": "neighbourhood", "population": null }, "geometry": { "type": "Point", "coordinates": [ -4.0743491, 5.3402048 ] } },
{ "type": "Feature", "properties": { "UserID": 0, "osm_id": 1375428260, "name": "Mockeyville", "type": "suburb", "population": null }, "geometry": { "type": "Point", "coordinates": [ -3.761374, 5.2165157 ] } },
{ "type": "Feature", "properties": { "UserID": 0, "osm_id": 1439215975, "name": "Chevaux", "type": "neighbourhood", "population": null }, "geometry": { "type": "Point", "coordinates": [ -4.0651501, 5.3687988 ] } },
{ "type": "Feature", "properties": { "UserID": 0, "osm_id": 1439222506, "name": "Saint Hubert", "type": "neighbourhood", "population": null }, "geometry": { "type": "Point", "coordinates": [ -4.064955, 5.366643 ] } },
{ "type": "Feature", "properties": { "UserID": 0, "osm_id": -2111917601, "name": "Cité soleil 2", "type": "quarter", "population": null }, "geometry": { "type": "Point", "coordinates": [ -3.9723603, 5.4007234 ] } },
{ "type": "Feature", "properties": { "UserID": 0, "osm_id": -1729058048, "name": "Place d'arme", "type": "square", "population": null }, "geometry": { "type": "Point", "coordinates": [ -4.0078068, 5.3802259 ] } },
{ "type": "Feature", "properties": { "UserID": 0, "osm_id": -1139803290, "name": "Cité Mangou", "type": "neighbourhood", "population": null }, "geometry": { "type": "Point", "coordinates": [ -4.0645096, 5.3624435 ] } }
]
}
